place,latitude,longitude,transportation,transportation_emoji,X2023,X2024
Ô²Õ¡Õ¾Ö€Õ¡,41.0762121,43.8051383,car,ğŸš—,9,10
Ô³ÕµÕ¸Ö‚Õ´Ö€Õ«,40.7509333,43.8439082,plain,ğŸ›«,4,1
Ô³Õ¸Õ£Õ¡Õ¾Õ¡Õ¶,41.2047892,44.3163774,car,ğŸš—,2,2
Ô±ÕµÖ€Õ¸Ö‚Õ´,41.190269,44.903896,train,ğŸš†,1,1
Ô²Õ¡Õ£Ö€Õ¡Õ¿Õ¡Õ·Õ¥Õ¶,41.2437209,44.800304,car,ğŸš—,20,18
Ô¶Õ¾Õ¡Ö€Õ©Õ¶Õ¸Ö,40.1519629,44.399279,plain,ğŸ›«,65,64
Õ„Õ¥Õ²Ö€Õ«,38.9016976,46.2467317,car,ğŸš—,2,4
